$PCDIN,01F10D,00020576,73,FFF8FFFF51FFFFFF*2A$PCDIN,00FF08,00020580,73,3B9F00001400FFFF*58$PCDIN,00FF4F,0002058A,73,3B9F00FFFFFDEBFF*53$PCDIN,01EF00,000205B3,73,3B9FF0818436A6884000FF02072290303030324364F2*54$PCDIN,01F809,000205BD,00,DC4980107E0F7800*2F$PCDIN,01F50B,000205C7,73,00F4000000FFFFFF*55$GPDPT,2.4,-0.0*7C
$PCDIN,01F010,000205D1,00,FFFFDC4980107E0F*53$GPZDA,071312,8,10,2021,02,00*74
$PCDIN,01F503,000205DB,73,000000FFFF00FFFF*24$GPVHW,350.9,T,355.7,M,0.0,N,0.0,K*49
$PCDIN,00FF1A,000205E5,73,3B9F0000FFFFFFFF*5D$PCDIN,01F503,000205F0,73,000000FFFF00FFFF*54$GPVHW,350.9,T,355.7,M,0.0,N,0.0,K*49
$PCDIN,01FD07,000205FA,73,00C0C76FFF7FFFFF*56$PCDIN,01FD07,00020604,73,00C0C76FFF7FFFFF*56$PCDIN,01F90B,0002060E,00,FFFC40030000FFFF*2F$PCDIN,01F802,00020618,73,00FC612E0000FFFF*51$GPVTG,68.0,T,63.3,M,0.0,N,0.0,K*46
$PCDIN,01F802,00020623,73,00FC612E0000FFFF*59$GPVTG,68.0,T,63.3,M,0.0,N,0.0,K*46
$PCDIN,01F809,0002062D,73,DC4960C27D0FFF7F*59$PCDIN,01F805,00020673,73,7FDC4960C27D0F00CE92DD10AF8B07005A2B484D4DE601FFFFFFFFFFFFFF7F23FC076400FF7FFFFFFF7F00*5B$GPGGA,071310.00,5422.324,N,1341.291,E,2,7,1.0,,M,,M,3.1,42*7E
$PCDIN,01FA04,00020744,73,2CFF0B15102FA7BFA00FFFFFFF7FF508322639801C0CFFFFFF7FF501A51CA7BFC012FFFFFF7FF520F71B4C480000FFFFFF7FF00ADF173E28A00FFFFFFF7FF5168216829B6810FFFFFF7FF51BC713CF6D3C0FFFFFFF7FF50E530ECCD4D80EFFFFFF7FF503D206D39AE40CFFFFFF7FF518180419130000FFFFFF7FF0316A129781E40CFFFFFF7FF2*53$GPGSV,3,1,11,21,69,281,40,8,56,188,31,1,42,281,48,32,41,106,0*43
$PCDIN,01F513,0002075D,73,FFFFFFFFFFFF5DF22C0400000000*20$GPVLW,37826.4,N,0.0,N*56
$PCDIN,01FF67,00020771,73,3B9F030004567D10190909*27$PCDIN,01FF67,00020785,73,3B9F030104567D10190909*2D$PCDIN,01FF67,00020799,73,3B9F030204567D10190909*23$PCDIN,01FE11,000207B7,00,C011FFFFFFFFFFFFFFFF40030000*56$PCDIN,01F903,000207C1,00,FF3015FAFFFFFFFF*5A$GPXTE,A,A,0.0082,R,N,A*17
$PCDIN,01F904,000207F4,00,8D986C000000FFFFFFFFFFFFC476E178FFFFFFFF02000000402368208AAE28080000*2C$GPRMB,A,0.01,R,255,2,5422.174,N,1341.303,E,0.2,177.3,0.0,V*1D
$PCDIN,01F905,00020885,00,0100030000000000070701526F757465FF01001001575036326530646533392D303030966368204AA3280802001001575036326530646533392D303031402368208AAE280803001001575036326530646533392D30303298A36720CEF62808*55$PCDIN,01FD02,0002088C,73,009000ED37FAFFFF*2F$GPMWV,82.0,R,1.4,M,A*16
$PCDIN,01F801,00020896,73,DB846820A9A62808*24$PCDIN,01F904,000208C8,00,8E986C000000FFFFFFFFFFFFC476E178FFFFFFFF02000000402368208AAE28080000*2B$GPRMB,A,0.01,R,255,2,5422.174,N,1341.303,E,0.2,177.3,0.0,V*1D
$PCDIN,01FF20,000208FA,00,3B9FA0575036326530646533392D303031000030303032E178A175986C0000FF*22$PCDIN,01FF66,00020941,00,3B9F0200575036326530646533392D30303100000300575036326530646533392D30303200000033020000BE723E6E*56$PCDIN,01F903,0002094B,00,FF3015FAFFFFFFFF*50$GPXTE,A,A,0.0082,R,N,A*17
$PCDIN,01F11A,00020955,00,FFFFFFFF4003FFFF*5A$PCDIN,01F112,0002095F,73,0054ECFF7FFF7FFD*5C$GPHDG,346.6,,,4.8,E*3E
$PCDIN,01F10D,00020969,73,FFF8FFFF51FFFFFF*28$PCDIN,00FF4F,00020973,73,3B9F00FFFF54ECFF*20$PCDIN,01EF00,0002099C,73,3B9FF0819C7126FF36428A00000000D63031000064F2*51$PCDIN,01F112,000209A6,73,00FDEBFF7FFF7FFD*5A$GPHDG,346.1,,,4.8,E*39
$PCDIN,01F10D,000209B0,73,FFF8FFFF51FFFFFF*55$PCDIN,00FF08,000209BA,73,3B9F00001400FFFF*5F$PCDIN,00FF4F,000209C4,73,3B9F00FFFFFDEBFF*51$PCDIN,01EF00,000209EC,73,3B9FF0818436A6884000FF02070000D63031000064F2*50$PCDIN,01F809,000209F7,00,DC4990377E0F7800*50$PCDIN,01F50B,00020A01,73,00FA000000FFFFFF*21$GPDPT,2.5,-0.0*7D
$PCDIN,01F010,00020A0B,00,FFFFDC4990377E0F*24$GPZDA,071313,8,10,2021,02,00*75
$PCDIN,01F503,00020A15,73,000000FFFF00FFFF*52$GPVHW,350.9,T,355.7,M,0.0,N,0.0,K*49
$PCDIN,00FF1A,00020A1F,73,3B9F0000FFFFFFFF*2E$PCDIN,01F503,00020A29,73,000000FFFF00FFFF*5D$GPVHW,350.9,T,355.7,M,0.0,N,0.0,K*49
$PCDIN,01FD07,00020A33,73,00C0C76FFF7FFFFF*25$PCDIN,01FD07,00020A3D,73,00C0C76FFF7FFFFF*52$PCDIN,01F90B,00020A47,00,FFFC40030000FFFF*2E$PCDIN,01F802,00020A52,73,00FC612E0000FFFF*28$GPVTG,68.0,T,63.3,M,0.0,N,0.0,K*46
$PCDIN,01F802,00020A5C,73,00FC612E0000FFFF*59$GPVTG,68.0,T,63.3,M,0.0,N,0.0,K*46
$PCDIN,01F809,00020A66,73,DC4960C27D0FFF7F*58$PCDIN,01F805,00020AAD,73,7FDC4960C27D0F00CE92DD10AF8B07005A2B484D4DE601FFFFFFFFFFFFFF7F23FC086400FF7FFFFFFF7F00*22$GPGGA,071310.00,5422.324,N,1341.291,E,2,8,1.0,,M,,M,3.1,1*46
$PCDIN,01FA04,00020B78,73,2CFF0B15102FA7BFA00FFFFFFF7FF508322639801C0CFFFFFF7FF501A51CA7BFC012FFFFFF7FF520F71B4C480000FFFFFF7FF00ADF173E28A00FFFFFFF7FF5168216829B6810FFFFFF7FF51BC713CF6D3C0FFFFFFF7FF50E530ECCD4D80EFFFFFF7FF503D206D39AE40CFFFFFF7FF518180419130000FFFFFF7FF0316A129781480DFFFFFF7FF2*53$GPGSV,3,1,11,21,69,281,40,8,56,188,31,1,42,281,48,32,41,106,0*43
$PCDIN,01F513,00020B96,73,FFFFFFFFFFFF5DF22C0400000000*2B$GPVLW,37826.4,N,0.0,N*56
$PCDIN,01FF67,00020BAA,73,3B9F030004567D10190909*54$PCDIN,01FF67,00020BBE,73,3B9F030104567D10190909*52$PCDIN,01FF67,00020BD3,73,3B9F030204567D10190909*21$PCDIN,01FE11,00020BF1,00,C012FFFFFFFFFFFFFFFF40030000*22$PCDIN,01F903,00020BFB,00,FF3015FAFFFFFFFF*59$GPXTE,A,A,0.0082,R,N,A*17
$PCDIN,01F904,00020C2E,00,8F986C000000FFFFFFFFFFFFC476E178FFFFFFFF02000000402368208AAE28080000*5F$GPRMB,A,0.01,R,255,2,5422.174,N,1341.303,E,0.2,177.3,0.0,V*1D
$PCDIN,01F905,00020CBC,00,0100030000000000070701526F757465FF01001001575036326530646533392D303030966368204AA3280802001001575036326530646533392D303031402368208AAE280803001001575036326530646533392D30303298A36720CEF62808*22$PCDIN,01F801,00020CC6,73,34846820A9A62808*24$GPRMC,071310.00,A,5422.323,N,1341.291,E,0.0,68.0,081021,4.8,E*5A
$PCDIN,01FD02,00020CD0,73,008B008643FAFFFF*24$GPMWV,99.0,R,1.4,M,A*1C
$PCDIN,01F10D,00020CDA,73,FFF8FFFF51FFFFFF*58$PCDIN,00FF4F,00020CE4,73,3B9F00FFFF54ECFF*2F$PCDIN,01EF00,00020D0D,73,3B9FF0819C7126FF000DA14BA8A175303031000064F2*50$PCDIN,01F112,00020D17,73,0054ECFF7FFF7FFD*54$GPHDG,346.6,,,4.8,E*3E
$PCDIN,01F904,00020D4A,00,90D06B000000FFFFFFFFFFFFC476E178FFFFFFFF02000000402368208AAE28080000*59$GPRMB,A,0.01,R,255,2,5422.174,N,1341.303,E,0.1,177.3,0.0,V*1E
$PCDIN,01FF20,00020D7C,00,3B9FA1575036326530646533392D303031000030303032E178A175D06B0000FF*58$PCDIN,01FF66,00020DC3,00,3B9F0200575036326530646533392D30303100000300575036326530646533392D30303200000033020000BE723E6E*5E$PCDIN,01F903,00020DCD,00,FF3028FAFFFFFFFF*52$GPXTE,A,A,0.0081,R,N,A*14
$PCDIN,01F11A,00020DD7,00,FFFFFFFF4003FFFF*54$PCDIN,01F10D,00020DE1,73,FFF8FFFF51FFFFFF*2E$PCDIN,00FF08,00020DEC,73,3B9F00001400FFFF*27$PCDIN,00FF4F,00020DF6,73,3B9F00FFFFFDEBFF*2B$PCDIN,01EF00,00020E1E,73,3B9FF0818436A6884000FF0207A175303031000064F2*5D$PCDIN,01F112,00020E28,73,00FDEBFF7FFF7FFD*5B$GPHDG,346.1,,,4.8,E*39
$PCDIN,01F809,00020E32,00,DC49A05E7E0F7800*50$PCDIN,01F50B,00020E3D,73,00E8000000FFFFFF*29$GPDPT,2.3,-0.0*7B
$PCDIN,00EA00,00020E47,00,00EE00*20$PCDIN,00EE00,00020E51,64,2ED6E27C00823340*29$PCDIN,00EA00,00020E5B,00,00EE01*55$PCDIN,00EA00,00020E8D,00,14F001*2D$GPRMC,071314.00,A,5422.323,N,1341.291,E,0.0,68.0,081021,4.8,E*5E
$PCDIN,01EE00,00020EDA,64,00FFFFFFFFFFFFFFFFFFFFFFFFFFFFFFFFFFFFFFFFFFFFFFFFFFFFFFFFFFFFFFFFFFFFFFFFFFFFFFFFFFFFFFFFFFFFFFFFFFFFFFFFFFFFFFFFFFFFFFFFFFFFFFFFFFFFFFFFFFFFFFFFFFFFFF*21$PCDIN,00EA00,00020EE1,00,14F001*25$PCDIN,01F503,00020F07,73,000000FFFF00FFFF*56$GPVHW,350.9,T,355.7,M,0.0,N,0.0,K*49
$PCDIN,01F010,00020F1B,00,FFFFDC49A05E7E0F*2E$GPZDA,071314,8,10,2021,02,00*72
$PCDIN,01F014,00020FBF,64,14059B025369676E616C204BFFFFFFFFFFFFFFFFFFFFFFFFFFFFFFFFFFFFFFFFFFFFFFFF312E30FFFFFFFFFFFFFFFFFFFFFFFFFFFFFFFFFFFFFFFFFFFFFFFFFFFFFFFFFF63616E6275736A73FFFFFFFFFFFFFFFFFFFFFFFFFFFFFFFFFFFFFFFFFFFFFFFF313233343536FFFFFFFFFFFFFFFFFFFFFFFFFFFFFFFFFFFFFFFFFFFFFFFFFFFF0001*24$PCDIN,01F014,00021089,64,14059B025369676E616C204BFFFFFFFFFFFFFFFFFFFFFFFFFFFFFFFFFFFFFFFFFFFFFFFF312E30FFFFFFFFFFFFFFFFFFFFFFFFFFFFFFFFFFFFFFFFFFFFFFFFFFFFFFFFFF63616E6275736A73FFFFFFFFFFFFFFFFFFFFFFFFFFFFFFFFFFFFFFFFFFFFFFFF313233343536FFFFFFFFFFFFFFFFFFFFFFFFFFFFFFFFFFFFFFFFFFFFFFFFFFFF0001*56$PCDIN,00FF1A,00021093,73,3B9F0000FFFFFFFF*23$PCDIN,01F503,0002109D,73,000000FFFF00FFFF*5B$GPVHW,350.9,T,355.7,M,0.0,N,0.0,K*49
$PCDIN,01FD07,000210A8,73,00C0C76FFF7FFFFF*2C$PCDIN,01FD07,000210B2,73,00C0C76FFF7FFFFF*25$PCDIN,01F90B,000210BC,00,FFFC40030000FFFF*5C$PCDIN,01F802,000210C6,73,00FC612E0000FFFF*2A$GPVTG,68.0,T,63.3,M,0.0,N,0.0,K*46
$PCDIN,01F802,000210D0,73,00FC612E0000FFFF*2B$GPVTG,68.0,T,63.3,M,0.0,N,0.0,K*46
$PCDIN,01FD02,000210DA,73,0081003335FAFFFF*5B$GPMWV,78.0,R,1.3,M,A*14
$PCDIN,01F805,00021121,73,7FDC4960C27D0F000899FBE9AE8B07005A2B484D4DE601FFFFFFFFFFFFFF7F23FC086400FF7FFFFFFF7F00*2A$GPGGA,071310.00,5422.323,N,1341.291,E,2,8,1.0,,M,,M,3.1,1*41
$PCDIN,01FA04,000211EC,73,2CFF0B15102FA7BFA00FFFFFFF7FF508322639801C0CFFFFFF7FF501A51CA7BFC012FFFFFF7FF520F71B4C480000FFFFFF7FF00ADF173E28A00FFFFFFF7FF5168216829B6810FFFFFF7FF51BC713CF6D3C0FFFFFFF7FF50E530ECCD4D80EFFFFFF7FF503D206D39AE40CFFFFFF7FF518180419130000FFFFFF7FF0316A129781480DFFFFFF7FF2*28$GPGSV,3,1,11,21,69,281,40,8,56,188,31,1,42,281,48,32,41,106,0*43
$PCDIN,01F513,0002120A,73,FFFFFFFFFFFF5DF22C0400000000*24$GPVLW,37826.4,N,0.0,N*56
$PCDIN,01FF67,0002121E,73,3B9F030004567D10190909*51$PCDIN,01F809,00021228,73,DC4960C27D0FFF7F*20$PCDIN,01FF67,0002123D,73,3B9F030104567D10190909*53$PCDIN,01FF67,00021251,73,3B9F030204567D10190909*23$PCDIN,01FE11,0002126F,00,C013FFFFFFFFFFFFFFFF40030000*55$PCDIN,01F903,00021279,00,FF3028FAFFFFFFFF*2C$GPXTE,A,A,0.0081,R,N,A*14
$PCDIN,01F904,000212AC,00,91D06B000000FFFFFFFFFFFFC476E178FFFFFFFF02000000402368208AAE28080000*58$GPRMB,A,0.01,R,255,2,5422.174,N,1341.303,E,0.1,177.3,0.0,V*1E
$PCDIN,01F905,0002133B,00,0100030000000000070701526F757465FF01001001575036326530646533392D303030966368204AA3280802001001575036326530646533392D303031402368208AAE280803001001575036326530646533392D30303298A36720CEF62808*23$PCDIN,01EF00,00021362,73,3B9FF08190000341FA005702A8A175303031000064F2*54$PCDIN,01F801,0002136C,73,81856820A9A62808*5A$PCDIN,01F112,00021377,73,0054ECFF7FFF7FFD*24$GPHDG,346.6,,,4.8,E*3E
$PCDIN,01F10D,00021381,73,FFF8FFFF51FFFFFF*25$PCDIN,00FF4F,0002138B,73,3B9F00FFFF54ECFF*55$PCDIN,01EF00,000213B4,73,3B9FF0819C7126FF350DA14BA8A175303031000064F2*22$PCDIN,01F904,000213E6,00,92606D000000FFFFFFFFFFFFC476E178FFFFFFFF02000000402368208AAE28080000*5F$GPRMB,A,0.01,R,255,2,5422.174,N,1341.303,E,0.2,177.3,0.0,V*1D
$PCDIN,01FF20,00021419,00,3B9FA2575036326530646533392D303031000030303032E178A175606D0000FF*22$PCDIN,01FF66,00021460,00,3B9F0200575036326530646533392D30303100000300575036326530646533392D30303200000033020000BE723E6E*59$PCDIN,01F903,0002146A,00,FF3002FAFFFFFFFF*5B$GPXTE,A,A,0.0083,R,N,A*16
$PCDIN,01F11A,00021474,00,FFFFFFFF4003FFFF*55$PCDIN,01F809,0002147E,00,DC49B0857E0F7800*2D$GPHDG,346.1,,,4.8,E*39
$PCDIN,01FA04,00021644,73,2CFF0B15102FA7BFA00FFFFFFF7FF508322639801C0CFFFFFF7FF501A51CA7BFC012FFFFFF7FF520F71B4C480000FFFFFF7FF00ADF173E28A00FFFFFFF7FF5168216829B6810FFFFFF7FF51BC713CF6D3C0FFFFFFF7FF50E530ECCD4D80EFFFFFF7FF503D206D39AE40CFFFFFF7FF518180419130000FFFFFF7FF0316A129781480DFFFFFF7FF2*29$GPGSV,3,1,11,21,69,281,40,8,56,188,31,1,42,281,48,32,41,106,0*43
$PCDIN,01F513,00021662,73,FFFFFFFFFFFF5DF22C0400000000*55$GPVLW,37826.4,N,0.0,N*56
$PCDIN,01FF67,00021677,73,3B9F030004567D10190909*21$PCDIN,01F802,00021681,73,00FC612E0000FFFF*50$GPVTG,68.0,T,63.3,M,0.0,N,0.0,K*46
$PCDIN,01F809,0002168B,73,DC4960C27D0FFF7F*54$PCDIN,01FF67,000216A2,73,3B9F030104567D10190909*53$PCDIN,01FF67,000216B3,73,3B9F030204567D10190909*52$PCDIN,01FE11,000216D2,00,C014FFFFFFFFFFFFFFFF40030000*50$PCDIN,01F903,000216DC,00,FF3002FAFFFFFFFF*29$GPXTE,A,A,0.0083,R,N,A*16
$PCDIN,01F904,0002170E,00,93606D000000FFFFFFFFFFFFC476E178FFFFFFFF02000000402368208AAE28080000*5C$GPRMB,A,0.01,R,255,2,5422.174,N,1341.303,E,0.2,177.3,0.0,V*1D
$PCDIN,01F905,0002179B,00,0100030000000000070701526F757465FF01001001575036326530646533392D303030966368204AA3280802001001575036326530646533392D303031402368208AAE280803001001575036326530646533392D30303298A36720CEF62808*2D$PCDIN,01F801,000217A5,73,3484682003A62808*2B$PCDIN,01F112,000217B0,73,0054ECFF7FFF7FFD*52$GPHDG,346.6,,,4.8,E*3E
$PCDIN,01F10D,000217BA,73,FFF8FFFF51FFFFFF*2B$PCDIN,00FF4F,000217C4,73,3B9F00FFFF54ECFF*5C$PCDIN,01EF00,000217ED,73,3B9FF0819C7126FF330DA14A33392D303031000064F2*23$PCDIN,01F904,0002181F,00,94D06B000000FFFFFFFFFFFFC476BE78FFFFFFFF02000000402368208AAE28080000*51$GPRMB,A,0.01,R,255,2,5422.174,N,1341.303,E,0.1,177.1,0.0,V*1C
$PCDIN,01FF20,00021852,00,3B9FA3575036326530646533392D303031000030303032BE787E75D06B0000FF*25$PCDIN,01FF66,00021898,00,3B9F0200575036326530646533392D30303100000300575036326530646533392D30303200000033020000AC723E6E*57$PCDIN,01F903,000218A3,00,FF3093FAFFFFFFFF*5A$GPXTE,A,A,0.0075,R,N,A*1F
$PCDIN,01F11A,000218AD,00,FFFFFFFF4003FFFF*5F$PCDIN,01F809,000218B7,00,DC49C0AC7E0F7800*28$PCDIN,01F112,000218C1,73,00FDEBFF7FFF7FFD*5F$GPHDG,346.1,,,4.8,E*39
$PCDIN,01F10D,000218CC,73,FFF8FFFF51FFFFFF*27$PCDIN,00FF08,000218D6,73,3B9F00001400FFFF*2E$PCDIN,00FF4F,000218E0,73,3B9F00FFFFFDEBFF*53$PCDIN,01EF00,00021908,73,3B9FF0818436A6884000FF02070000000000000064F2*2C$PCDIN,01F010,00021912,00,FFFFDC49C0AC7E0F*50$GPZDA,071316,8,10,2021,02,00*70
$PCDIN,01F50B,0002191D,73,00EB000000FFFFFF*2C$GPDPT,2.3,-0.0*7B
$PCDIN,01F503,00021927,73,000000FFFF00FFFF*2A$GPVHW,350.9,T,355.7,M,0.0,N,0.0,K*49
$PCDIN,00FF1A,00021931,73,3B9F0000FFFFFFFF*22$PCDIN,01F503,0002193B,73,000000FFFF00FFFF*5E$GPVHW,350.9,T,355.7,M,0.0,N,0.0,K*49
$PCDIN,01FD07,00021945,73,00C0C76FFF7FFFFF*5D$PCDIN,01FD02,0002194F,73,0076001B31FAFFFF*5A$GPMWV,72.0,R,1.2,M,A*1F
$PCDIN,01F90B,0002195A,00,FFFC40030000FFFF*20$GPRMC,071316.00,A,5422.323,N,1341.290,E,0.0,68.0,081021,4.8,E*5D
$PCDIN,01F802,00021963,73,00FC612E0000FFFF*53$GPVTG,68.0,T,63.3,M,0.0,N,0.0,K*46
$PCDIN,01F802,0002196D,73,00FC612E0000FFFF*24$GPVTG,68.0,T,63.3,M,0.0,N,0.0,K*46
$PCDIN,01F809,00021978,73,DC4960C27D0FFF7F*2E$PCDIN,01F805,000219BF,73,7FDC4960C27D0F000899FBE9AE8B07005ECCA1264DE601FFFFFFFFFFFFFF7F23FC086400FF7FFFFFFF7F00*59$GPGGA,071310.00,5422.323,N,1341.290,E,2,8,1.0,,M,,M,3.1,42*77
$PCDIN,01FA04,00021A89,73,2CFF0B15102FA7BF3C0FFFFFFF7FF50883253980800CFFFFFF7FF501A51CA7BFC012FFFFFF7FF520F71B4C480000FFFFFF7FF00ADF173E28A00FFFFFFF7FF5168216829B6810FFFFFF7FF51BC713CF6D740EFFFFFF7FF50E530ECCD4740EFFFFFF7FF5038107D39A1C0CFFFFFF7FF51818046A120000FFFFFF7FF0316A129781480DFFFFFF7FF2*21$GPGSV,3,1,11,21,69,281,39,8,55,188,32,1,42,281,48,32,41,106,0*4D
$PCDIN,01F513,00021AAB,73,FFFFFFFFFFFF5DF22C0400000000*25$GPVLW,37826.4,N,0.0,N*56
$PCDIN,01FF67,00021ABC,73,3B9F030004567D10190909*57$PCDIN,01FF67,00021AD0,73,3B9F030104567D10190909*23$PCDIN,01FF67,00021AE4,73,3B9F030204567D10190909*25$PCDIN,01FE11,00021B03,00,C015FFFFFFFFFFFFFFFF40030000*50$PCDIN,01F903,00021B0D,00,FF3093FAFFFFFFFF*26$GPXTE,A,A,0.0075,R,N,A*1F
$PCDIN,01F904,00021B3F,00,95D06B000000FFFFFFFFFFFFC476BE78FFFFFFFF02000000402368208AAE28080000*28$GPRMB,A,0.01,R,255,2,5422.174,N,1341.303,E,0.1,177.1,0.0,V*1C
$PCDIN,01EF00,00021BD8,73,3B9FF08190000300C530303233392D303031000064F2*5F$PCDIN,01F905,00021BF6,00,0100030000000000070701526F757465FF01001001575036326530646533392D303030966368204AA3280802001001575036326530646533392D303031402368208AAE280803001001575036326530646533392D30303298A36720CEF62808*53$PCDIN,01FD07,00021C00,73,00C0C76FFF7FFFFF*26$PCDIN,01F801,00021C0A,73,348468205CA52808*2C$PCDIN,01F112,00021C14,73,0054ECFF7FFF7FFD*51$GPHDG,346.6,,,4.8,E*3E
$PCDIN,01F10D,00021C1F,73,FFF8FFFF51FFFFFF*2B$PCDIN,00FF4F,00021C29,73,3B9F00FFFF54ECFF*54$PCDIN,01EF00,00021C51,73,3B9FF0819C7126FF330DA14933392D303031000064F2*2A$PCDIN,01F904,00021C84,00,96D06B000000FFFFFFFFFFFFC4768978FFFFFFFF02000000402368208AAE28080000*55$GPRMB,A,0.01,R,255,2,5422.174,N,1341.303,E,0.1,176.8,0.0,V*14
$PCDIN,01FF20,00021CB6,00,3B9FA4575036326530646533392D30303100003030303289784975D06B0000FF*53$PCDIN,01FF66,00021CFD,00,3B9F0200575036326530646533392D30303100000300575036326530646533392D303032000000330200009B723E6E*56$PCDIN,01F903,00021D07,00,FF30FEFAFFFFFFFF*5A$GPXTE,A,A,0.0069,R,N,A*12
$PCDIN,01F904,00021D3A,00,97D06B000000FFFFFFFFFFFFC4768978FFFFFFFF02000000402368208AAE28080000*2D$GPRMB,A,0.01,R,255,2,5422.174,N,1341.303,E,0.1,176.8,0.0,V*14
$PCDIN,01FF20,00021D6D,00,3B9FA5575036326530646533392D30303100003030303289784975D06B0000FF*53$GPRMC,071310.00,A,5422.323,N,1341.289,E,0.0,68.0,081021,4.8,E*53
$PCDIN,01FF66,00021DB3,00,3B9F0200575036326530646533392D30303100000300575036326530646533392D303032000000330200009B723E6E*22$PCDIN,01F11A,00021DBE,00,FFFFFFFF4003FFFF*21$PCDIN,01F809,00021DC8,00,DC49D0D37E0F7800*28$PCDIN,01F50B,00021DD2,73,00EE000000FFFFFF*55$GPDPT,2.4,-0.0*7C
$PCDIN,00FFFF,00021DDC,00,4F9A00F5FFFFFFFF*59$PCDIN,01F112,00021DE6,73,00FDEBFF7FFF7FFD*22$GPHDG,346.1,,,4.8,E*39
$PCDIN,01F10D,00021DF0,73,FFF8FFFF51FFFFFF*2D$PCDIN,00FF08,00021DFA,73,3B9F00001400FFFF*27$PCDIN,00FF4F,00021E04,73,3B9F00FFFFFDEBFF*5F$PCDIN,01EF00,00021E2D,73,3B9FF0818436A6884000FF0207392D303031000064F2*50$PCDIN,01F010,00021E37,00,FFFFDC49D0D37E0F*59$GPZDA,071317,8,10,2021,02,00*71
$PCDIN,01F503,00021E41,73,000000FFFF00FFFF*56$GPVHW,350.9,T,355.7,M,0.0,N,0.0,K*49
$PCDIN,00FF1A,00021E4B,73,3B9F0000FFFFFFFF*2A$PCDIN,01F503,00021E56,73,000000FFFF00FFFF*50$GPVHW,350.9,T,355.7,M,0.0,N,0.0,K*49
$PCDIN,01FD07,00021E68,73,00C0C76FFF7FFFFF*2E$PCDIN,01FD07,00021E7B,73,00C0C76FFF7FFFFF*55$PCDIN,01FD02,00021E7D,73,007C00481BFAFFFF*5C$GPMWV,40.0,R,1.2,M,A*1E
$PCDIN,01F90B,00021E81,00,FFFC40030000FFFF*21$PCDIN,01F802,00021E8D,73,00FC612E0000FFFF*56$GPVTG,68.0,T,63.3,M,0.0,N,0.0,K*46
$PCDIN,01F802,00021E99,73,00FC612E0000FFFF*2A$GPVTG,68.0,T,63.3,M,0.0,N,0.0,K*46
$PCDIN,01F809,00021EA5,73,DC4960C27D0FFF7F*29$PCDIN,01F805,00021EE3,73,7FDC4960C27D0F000899FBE9AE8B070098D2BFFF4CE601FFFFFFFFFFFFFF7F23FC086400FF7FFFFFFF7F00*27$GPGGA,071310.00,5422.323,N,1341.289,E,2,8,1.0,,M,,M,3.1,1*48
$PCDIN,01FA04,00021FAE,73,2CFF0B15102FA7BF3C0FFFFFFF7FF50883253980800CFFFFFF7FF501A51CA7BFC012FFFFFF7FF520F71B4C480000FFFFFF7FF00ADF173E28A00FFFFFFF7FF5168216829B6810FFFFFF7FF51BC713CF6D740EFFFFFF7FF50E530ECCD4740EFFFFFF7FF5038107D39A1C0CFFFFFF7FF51818046A120000FFFFFF7FF0316A129781480DFFFFFF7FF2*23$GPGSV,3,1,11,21,69,281,39,8,55,188,32,1,42,281,48,32,41,106,0*4D
$PCDIN,01F513,00021FCC,73,FFFFFFFFFFFF5DF22C0400000000*21$GPVLW,37826.4,N,0.0,N*56
$PCDIN,01FF67,00021FE0,73,3B9F030004567D10190909*24$PCDIN,01FF67,00021FF5,73,3B9F030104567D10190909*23$PCDIN,01FF67,00022009,73,3B9F030204567D10190909*2F$PCDIN,01FE11,00022027,00,C016FFFFFFFFFFFFFFFF40030000*24$PCDIN,01F903,0002203B,00,FF30FEFAFFFFFFFF*5B$GPXTE,A,A,0.0069,R,N,A*12
$PCDIN,01EF00,0002206E,73,3B9FF0819C7126FF3030303233392D303031000064F2*26$PCDIN,01F112,00022082,73,0054ECFF7FFF7FFD*2E$GPHDG,346.6,,,4.8,E*3E
$PCDIN,01F10D,00022096,73,FFF8FFFF51FFFFFF*23$PCDIN,01F904,000220A0,00,98D06B000000FFFFFFFFFFFFC4768978FFFFFFFF02000000402368208AAE28080000*56$GPRMB,A,0.01,R,255,2,5422.174,N,1341.303,E,0.1,176.8,0.0,V*14
$PCDIN,00FF4F,000220AA,73,3B9F00FFFF54ECFF*2F$PCDIN,01F905,00022137,00,0100030000000000070701526F757465FF01001001575036326530646533392D303030966368204AA3280802001001575036326530646533392D303031402368208AAE280803001001575036326530646533392D30303298A36720CEF62808*57$PCDIN,01F801,00022142,73,348468205CA52808*2A$PCDIN,01F904,00022174,00,99D06B000000FFFFFFFFFFFFC4768978FFFFFFFF02000000402368208AAE28080000*24$GPRMB,A,0.01,R,255,2,5422.174,N,1341.303,E,0.1,176.8,0.0,V*14
$PCDIN,01FF20,000221A6,00,3B9FA6575036326530646533392D30303100003030303289784975D06B0000FF*23$GPRMC,071310.00,A,5422.323,N,1341.289,E,0.0,68.0,081021,4.8,E*53
$PCDIN,01FF66,000221ED,00,3B9F0200575036326530646533392D30303100000300575036326530646533392D303032000000330200009B723E6E*24$PCDIN,01F903,000221F7,00,FF30FEFAFFFFFFFF*5A$GPXTE,A,A,0.0069,R,N,A*12
$PCDIN,01F11A,00022201,00,FFFFFFFF4003FFFF*52$PCDIN,01F809,0002220B,00,DC49E0FA7E0F7800*25$PCDIN,01F50B,00022215,73,00EB000000FFFFFF*55$GPDPT,2.3,-0.0*7B
$PCDIN,01F503,0002221F,73,000000FFFF00FFFF*50$GPVHW,351.4,T,356.2,M,0.0,N,0.0,K*43
$PCDIN,01F010,0002222A,00,FFFFDC49E0FA7E0F*2B$GPZDA,071318,8,10,2021,02,00*7E
$PCDIN,01F112,00022234,73,00FDEBFF7FFF7FFD*23$GPHDG,346.1,,,4.8,E*39
$PCDIN,01F10D,0002223E,73,FFF8FFFF51FFFFFF*58$PCDIN,00FF08,00022250,73,3B9F00001400FFFF*50$PCDIN,00FF4F,00022261,73,3B9F00FFFFFDEBFF*28$PCDIN,01EF00,0002227E,73,3B9FF0818436A6884000FF02070000D53031000064F2*2E$PCDIN,01F503,00022287,73,000000FFFF00FFFF*28$GPVHW,350.9,T,355.7,M,0.0,N,0.0,K*49
$PCDIN,00FF1A,00022290,73,3B9F0000FFFFFFFF*21$PCDIN,01FD07,0002229A,73,00C0C76FFF7FFFFF*2C$PCDIN,01FD07,000222A3,73,00C0C76FFF7FFFFF*26$PCDIN,01FD02,000222AD,73,008600B22DFAFFFF*5D$GPMWV,67.0,R,1.3,M,A*1A
$PCDIN,01F90B,000222B7,00,FFFC40030000FFFF*29$PCDIN,01F802,000222C2,73,00FC612E0000FFFF*2F$GPVTG,68.0,T,63.3,M,0.0,N,0.0,K*46
$PCDIN,01F802,000222CC,73,00FC612E0000FFFF*5E$GPVTG,68.0,T,63.3,M,0.0,N,0.0,K*46
$PCDIN,01F809,000222D6,73,DC4960C27D0FFF7F*5B$PCDIN,01F805,0002231D,73,7FDC4960C27D0F000899FBE9AE8B070098D2BFFF4CE601FFFFFFFFFFFFFF7F23FC086400FF7FFFFFFF7F00*51$GPGGA,071310.00,5422.323,N,1341.289,E,2,8,1.0,,M,,M,3.1,1*48
$PCDIN,01FA04,000223E7,73,2CFF0B15102FA7BF3C0FFFFFFF7FF50883253980800CFFFFFF7FF501A51CA7BFC012FFFFFF7FF520F71B4C480000FFFFFF7FF00ADF173E28A00FFFFFFF7FF5168216829B6810FFFFFF7FF51BC713CF6D740EFFFFFF7FF50E530ECCD4740EFFFFFF7FF5038107D39A1C0CFFFFFF7FF51818046A120000FFFFFF7FF0316A129781E40CFFFFFF7FF2*59$GPGSV,3,1,11,21,69,281,39,8,55,188,32,1,42,281,48,32,41,106,0*4D
$PCDIN,01F513,00022405,73,FFFFFFFFFFFF5DF22C0400000000*55$GPVLW,37826.4,N,0.0,N*56
$PCDIN,01FF67,0002241A,73,3B9F030004567D10190909*50$PCDIN,01FF67,0002242E,73,3B9F030104567D10190909*56$PCDIN,01FF67,00022442,73,3B9F030204567D10190909*24$PCDIN,01FE11,00022461,00,C017FFFFFFFFFFFFFFFF40030000*23$PCDIN,01EF00,00022489,73,3B9FF081900003FF30303032575036326530646564F2*5E$PCDIN,01F903,00022493,00,FF30FEFAFFFFFFFF*24$GPXTE,A,A,0.0069,R,N,A*12
$PCDIN,01F904,000224C6,00,9AD06B000000FFFFFFFFFFFFC4768978FFFFFFFF02000000402368208AAE28080000*2F$GPRMB,A,0.01,R,255,2,5422.174,N,1341.303,E,0.1,176.8,0.0,V*14
$PCDIN,01F112,000224DA,73,0054ECFF7FFF7FFD*25$GPHDG,346.6,,,4.8,E*3E
$PCDIN,01F10D,000224EF,73,FFF8FFFF51FFFFFF*2B$PCDIN,00FF4F,00022503,73,3B9F00FFFF54ECFF*29$PCDIN,01EF00,00022554,73,3B9FF0819C7126FF30303032575036326530646564F2*2D$PCDIN,01F905,0002259B,00,0100030000000000070701526F757465FF01001001575036326530646533392D303030966368204AA3280802001001575036326530646533392D303031402368208AAE280803001001575036326530646533392D30303298A36720CEF62808*2C$PCDIN,01F801,000225A5,73,34846820B5A42808*5C$PCDIN,01F904,000225D7,00,9BD06B000000FFFFFFFFFFFFC4766778FFFFFFFF02000000402368208AAE28080000*2B$GPRMB,A,0.01,R,255,2,5422.174,N,1341.303,E,0.1,176.6,0.0,V*1A
$PCDIN,01FF20,0002260A,00,3B9FA7575036326530646533392D30303100003030303267782775D06B0000FF*2B$PCDIN,01FF66,00022651,00,3B9F0200575036326530646533392D30303100000300575036326530646533392D303032000000330200008A723E6E*24$PCDIN,01F903,0002265F,00,FF306AFBFFFFFFFF*28$GPXTE,A,A,0.0063,R,N,A*18
$PCDIN,01F11A,0002266A,00,FFFFFFFF4003FFFF*20$PCDIN,01F809,00022676,00,DC49F0217F0F7800*56$PCDIN,01F50B,0002267B,73,00E8000000FFFFFF*5A$GPDPT,2.3,-0.0*7B
$PCDIN,01F503,00022686,73,000000FFFF00FFFF*2D$GPVHW,351.4,T,356.2,M,0.0,N,0.0,K*43
$PCDIN,00FF1A,0002268E,73,3B9F0000FFFFFFFF*51$PCDIN,01F503,00022698,73,000000FFFF00FFFF*22$GPVHW,351.4,T,356.2,M,0.0,N,0.0,K*43
$PCDIN,01F010,000226A2,00,FFFFDC49F0217F0F*2B$GPZDA,071319,8,10,2021,02,00*7F
$PCDIN,01F112,000226AC,73,00FDEBFF7FFF7FFD*22$GPHDG,346.1,,,4.8,E*39
$PCDIN,01F10D,000226B6,73,FFF8FFFF51FFFFFF*5E$PCDIN,00FF08,000226C1,73,3B9F00001400FFFF*23$PCDIN,00FF4F,000226CB,73,3B9F00FFFFFDEBFF*2A$PCDIN,01EF00,000226F3,73,3B9FF0818436A6884000FF02075036326530646564F2*5D$PCDIN,01FD02,000226FD,73,0086008F27FAFFFF*23$GPMWV,58.0,R,1.3,M,A*16
$PCDIN,01FD07,00022708,73,00C0C76FFF7FFFFF*59$PCDIN,01F90B,00022712,00,FFFC40030000FFFF*5A$PCDIN,01F802,0002271C,73,00FC612E0000FFFF*29$GPVTG,68.0,T,63.3,M,0.0,N,0.0,K*46
$PCDIN,01F809,00022726,73,DC4960C27D0FFF7F*28$PCDIN,01F805,0002276D,73,7FDC4960C27D0F000899FBE9AE8B0700D2D8DDD84CE601FFFFFFFFFFFFFF7F23FC086400FF7FFFFFFF7F00*57$GPGGA,071310.00,5422.323,N,1341.288,E,2,8,1.0,,M,,M,3.1,1*49
$PCDIN,01FA04,00022837,73,2CFF0B15102FA7BF3C0FFFFFFF7FF50883253980800CFFFFFF7FF501A51CA7BFC012FFFFFF7FF520F71B4C480000FFFFFF7FF00ADF173E28A00FFFFFFF7FF5168216829B6810FFFFFF7FF51BC713CF6D740EFFFFFF7FF50E530ECCD4740EFFFFFF7FF5038107D39A1C0CFFFFFF7FF51818046A120000FFFFFF7FF0316A129781E40CFFFFFF7FF2*24$GPGSV,3,1,11,21,69,281,39,8,55,188,32,1,42,281,48,32,41,106,0*4D
$PCDIN,01F513,00022855,73,FFFFFFFFFFFF5DF22C0400000000*5C$GPVLW,37826.4,N,0.0,N*56
$PCDIN,01FF67,00022869,73,3B9F030004567D10190909*23$PCDIN,01F802,00022874,73,00FC612E0000FFFF*57$GPVTG,68.0,T,63.3,M,0.0,N,0.0,K*46
$PCDIN,01FF67,00022888,73,3B9F030104567D10190909*2D$PCDIN,01FF67,0002289C,73,3B9F030204567D10190909*54$PCDIN,01FE11,000228BA,00,C018FFFFFFFFFFFFFFFF40030000*24$PCDIN,01EF00,000228E3,73,3B9FF081900005000036A9080D2290303030324364F2*2E$PCDIN,01F903,000228EC,00,FF306AFBFFFFFFFF*53$GPXTE,A,A,0.0063,R,N,A*18
$PCDIN,01F904,0002291F,00,9CD06B000000FFFFFFFFFFFFC4766778FFFFFFFF02000000402368208AAE28080000*22$GPRMB,A,0.01,R,255,2,5422.174,N,1341.303,E,0.1,176.6,0.0,V*1A
$PCDIN,01FD07,00022952,73,00C0C76FFF7FFFFF*58$PCDIN,01F905,000229B6,00,0100030000000000070701526F757465FF01001001575036326530646533392D303030966368204AA3280802001001575036326530646533392D303031402368208AAE280803001001575036326530646533392D30303298A36720CEF62808*2F$PCDIN,01F801,000229C0,73,34846820B5A42808*57$PCDIN,01F112,000229CB,73,0054ECFF7FFF7FFD*2C$GPHDG,346.6,,,4.8,E*3E
$PCDIN,01F10D,000229D5,73,FFF8FFFF51FFFFFF*54$PCDIN,00FF4F,000229DF,73,3B9F00FFFF54ECFF*24$PCDIN,01EF00,00022A07,73,3B9FF0819C7126FF330DA1480D2290303030324364F2*2F$PCDIN,01F904,00022A43,00,9DD06B000000FFFFFFFFFFFFC4766778FFFFFFFF02000000402368208AAE28080000*2D$GPRMB,A,0.01,R,255,2,5422.174,N,1341.303,E,0.1,176.6,0.0,V*1A
$PCDIN,01FF20,00022A6C,00,3B9FA8575036326530646533392D30303100003030303267782775D06B0000FF*57$PCDIN,01FF66,00022AB3,00,3B9F0200575036326530646533392D30303100000300575036326530646533392D303032000000330200008A723E6E*26$PCDIN,01F903,00022ABD,00,FF306AFBFFFFFFFF*2A$GPXTE,A,A,0.0063,R,N,A*18
$PCDIN,01F11A,00022AC8,00,FFFFFFFF4003FFFF*5B$PCDIN,01F809,00022AD2,00,DC4900497F0F7800*2E$PCDIN,01F50B,00022ADC,73,00EB000000FFFFFF*25$GPDPT,2.3,-0.0*7B
$PCDIN,01F503,00022AE6,73,000000FFFF00FFFF*27$GPVHW,351.4,T,356.2,M,0.0,N,0.0,K*43
$PCDIN,01F010,00022AF0,00,FFFFDC4900497F0F*21$GPZDA,071320,8,10,2021,02,00*75
$PCDIN,00FF1A,00022AFB,73,3B9F0000FFFFFFFF*5F$PCDIN,01F503,00022B05,73,000000FFFF00FFFF*52$GPVHW,351.4,T,356.2,M,0.0,N,0.0,K*43
$PCDIN,01F112,00022B0F,73,00FDEBFF7FFF7FFD*22$GPHDG,346.1,,,4.8,E*39
$PCDIN,01F10D,00022B19,73,FFF8FFFF51FFFFFF*56$PCDIN,00FF08,00022B23,73,3B9F00001400FFFF*24$PCDIN,00FF4F,00022B2D,73,3B9F00FFFFFDEBFF*29$PCDIN,01EF00,00022B56,73,3B9FF0818436A6884000FF02072290303030324364F2*53$PCDIN,01FD02,00022B60,73,008600541DFAFFFF*5C$GPMWV,43.0,R,1.3,M,A*1C
$PCDIN,01F90B,00022B6A,00,FFFC40030000FFFF*5B$PCDIN,01F805,00022BB0,73,7FDC4900497F0F000899FBE9AE8B0700D2D8DDD84CE601FFFFFFFFFFFFFF7F23FC086400FF7FFFFFFF7F00*5A$GPGGA,071320.00,5422.323,N,1341.288,E,2,8,1.0,,M,,M,3.1,1*4A
$PCDIN,01FA04,00022C7B,73,2CFF0B15102FA7BF3C0FFFFFFF7FF50883253980800CFFFFFF7FF501A51CA7BFC012FFFFFF7FF520F71B4C480000FFFFFF7FF00ADF173E28A00FFFFFFF7FF5168216829B6810FFFFFF7FF51BC713CF6D740EFFFFFF7FF50E530ECCD4740EFFFFFF7FF5038107D39A1C0CFFFFFF7FF51818046A120000FFFFFF7FF0316A129781E40CFFFFFF7FF2*2E$GPGSV,3,1,11,21,69,281,39,8,55,188,32,1,42,281,48,32,41,106,0*4D
$PCDIN,01F513,00022C9A,73,FFFFFFFFFFFF5DF22C0400000000*5F$GPVLW,37826.4,N,0.0,N*56
$PCDIN,01FF67,00022CAF,73,3B9F030004567D10190909*50$PCDIN,01F802,00022CB8,73,00FC612E0000FFFF*55$GPVTG,68.0,T,63.3,M,0.0,N,0.0,K*46
$PCDIN,01F809,00022CC2,73,DC4900497F0FFF7F*51$PCDIN,01FF67,00022CD6,73,3B9F030104567D10190909*24$PCDIN,01FF67,00022CEB,73,3B9F030204567D10190909*52$PCDIN,01FE11,00022D09,00,C019FFFFFFFFFFFFFFFF40030000*53$PCDIN,01EF00,00022D31,73,3B9FF0819000030003005702A82775303031000064F2*52$PCDIN,01FD07,00022D3C,73,00C0C76FFF7FFFFF*52$PCDIN,01F903,00022D46,00,FF306AFBFFFFFFFF*2B$GPXTE,A,A,0.0063,R,N,A*18
$PCDIN,01F904,00022D78,00,9ED06B000000FFFFFFFFFFFFC4766778FFFFFFFF02000000402368208AAE28080000*21$GPRMB,A,0.01,R,255,2,5422.174,N,1341.303,E,0.1,176.6,0.0,V*1A
$PCDIN,01F802,00022DFC,73,00FC612E0000FFFF*2D$GPVTG,68.0,T,63.3,M,0.0,N,0.0,K*46
$PCDIN,01F905,00022E10,00,0100030000000000070701526F757465FF01001001575036326530646533392D303030966368204AA3280802001001575036326530646533392D303031402368208AAE280803001001575036326530646533392D30303298A36720CEF62808*26$PCDIN,01F801,00022E21,73,34846820B5A42808*5B$PCDIN,01F112,00022E34,73,0054ECFF7FFF7FFD*56$GPHDG,346.6,,,4.8,E*3E
$PCDIN,01F10D,00022E37,73,FFF8FFFF51FFFFFF*5D$PCDIN,00FF4F,00022E42,73,3B9F00FFFF54ECFF*5C$PCDIN,01EF00,00022E62,73,3B9FF0819C7126FF330DA148A82775303031000064F2*2C$PCDIN,01F904,00022E94,00,9FD06B000000FFFFFFFFFFFFC4766778FFFFFFFF02000000402368208AAE28080000*21$GPRMB,A,0.01,R,255,2,5422.174,N,1341.303,E,0.1,176.6,0.0,V*1A
$PCDIN,01FF20,00022EC7,00,3B9FA9575036326530646533392D30303100003030303267782775D06B0000FF*53$PCDIN,01FF66,00022F0D,00,3B9F0200575036326530646533392D30303100000300575036326530646533392D303032000000330200008A723E6E*24$PCDIN,01F903,00022F17,00,FF306AFBFFFFFFFF*2D$GPXTE,A,A,0.0063,R,N,A*18
$PCDIN,01F11A,00022F22,00,FFFFFFFF4003FFFF*27$PCDIN,01FD07,00022F2C,73,00C0C76FFF7FFFFF*51$PCDIN,01F50B,00022F36,73,00E8000000FFFFFF*5A$GPDPT,2.3,-0.0*7B
$PCDIN,01F809,00022F41,00,DC4910707F0F7800*51$PCDIN,01F503,00022F4B,73,000000FFFF00FFFF*25$GPVHW,351.4,T,356.2,M,0.0,N,0.0,K*43
$PCDIN,00FF1A,00022F55,73,3B9F0000FFFFFFFF*5C$PCDIN,01F503,00022F5E,73,000000FFFF00FFFF*23$GPVHW,351.4,T,356.2,M,0.0,N,0.0,K*43
$PCDIN,01F010,00022F69,00,FFFFDC4910707F0F*54$GPZDA,071321,8,10,2021,02,00*74
$PCDIN,01FD02,00022F73,73,008100042DFAFFFF*5B$GPMWV,66.0,R,1.3,M,A*1B
$PCDIN,01F10D,00022F7D,73,FFF8FFFF51FFFFFF*29$PCDIN,00FF08,00022F87,73,3B9F00001400FFFF*2E$PCDIN,00FF4F,00022F91,73,3B9F00FFFFFDEBFF*53$PCDIN,01EF00,00022FBA,73,3B9FF0818436A6884000FF02070000303031000064F2*59$PCDIN,01F112,00022FC4,73,00FDEBFF7FFF7FFD*27$GPHDG,346.1,,,4.8,E*39
$PCDIN,01FD07,00022FCE,73,00C0C76FFF7FFFFF*26$PCDIN,01F802,00022FD8,73,00FC612E0000FFFF*56$GPVTG,68.0,T,63.3,M,0.0,N,0.0,K*46
$PCDIN,01FD07,00022FE2,73,00C0C76FFF7FFFFF*57$PCDIN,01F802,00022FEC,73,00FC612E0000FFFF*2C$GPVTG,68.0,T,63.3,M,0.0,N,0.0,K*46
$PCDIN,01F90B,00022FF7,00,FFFC40030000FFFF*59$PCDIN,01F814,00023015,00,5738340000000000000000000000000057383400*2F$PCDIN,01F809,0002301F,73,DC4900497F0FFF7F*25$PCDIN,01F805,00023066,73,7FDC4900497F0F000899FBE9AE8B0700D2D8DDD84CE601FFFFFFFFFFFFFF7F23FC086400FF7FFFFFFF7F00*5B$GPGGA,071320.00,5422.323,N,1341.288,E,2,8,1.0,,M,,M,3.1,1*4A
$PCDIN,01FA04,00023130,73,2CFF0B15102FA7BF3C0FFFFFFF7FF50883253980800CFFFFFF7FF501A51CA7BFC012FFFFFF7FF520F71B4C480000FFFFFF7FF00ADF173E28A00FFFFFFF7FF5168216829B6810FFFFFF7FF51BC713CF6D740EFFFFFF7FF50E530ECCD4740EFFFFFF7FF5038107D39A1C0CFFFFFF7FF51818046A120000FFFFFF7FF0316A129781E40CFFFFFF7FF2*2B$GPGSV,3,1,11,21,69,281,39,8,55,188,32,1,42,281,48,32,41,106,0*4D
$PCDIN,01F513,0002314F,73,FFFFFFFFFFFF5DF22C0400000000*26$GPVLW,37826.4,N,0.0,N*56
$PCDIN,01FF67,00023163,73,3B9F030004567D10190909*21$PCDIN,01F801,0002316D,73,34846820B5A42808*5F$PCDIN,01FF67,00023182,73,3B9F030104567D10190909*2F$PCDIN,01FF67,00023196,73,3B9F030204567D10190909*29$PCDIN,01FE11,000231B4,00,C01AFFFFFFFFFFFFFFFF40030000*20$PCDIN,01F903,000231BE,00,FF306AFBFFFFFFFF*5A$GPXTE,A,A,0.0063,R,N,A*18
$PCDIN,01F904,000231F5,00,A0D06B000000FFFFFFFFFFFFC4766778FFFFFFFF02000000402368208AAE28080000*24$GPRMB,A,0.01,R,255,2,5422.174,N,1341.303,E,0.1,176.6,0.0,V*1A
$PCDIN,01F905,0002327F,00,0100030000000000070701526F757465FF01001001575036326530646533392D303030966368204AA3280802001001575036326530646533392D303031402368208AAE280803001001575036326530646533392D30303298A36720CEF62808*20$GPRMC,071320.00,A,5422.323,N,1341.288,E,0.0,68.0,081021,4.8,E*51
$PCDIN,01EF00,000232A7,73,3B9FF0819C7126FFFA005702A82775303031000064F2*27$PCDIN,01F112,000232B1,73,0054ECFF7FFF7FFD*54$GPHDG,346.6,,,4.8,E*3E
$PCDIN,01F10D,000232BB,73,FFF8FFFF51FFFFFF*2F$PCDIN,00FF4F,000232C6,73,3B9F00FFFF54ECFF*59$PCDIN,01F904,000232F8,00,A1D06B000000FFFFFFFFFFFFC4766778FFFFFFFF02000000402368208AAE28080000*2B$GPRMB,A,0.01,R,255,2,5422.174,N,1341.303,E,0.1,176.6,0.0,V*1A
$PCDIN,01FF20,0002332B,00,3B9FAA575036326530646533392D30303100003030303267782775D06B0000FF*58$PCDIN,01FF66,00023372,00,3B9F0200575036326530646533392D30303100000300575036326530646533392D303032000000330200008A723E6E*21$PCDIN,01F903,0002337C,00,FF306AFBFFFFFFFF*2B$GPXTE,A,A,0.0063,R,N,A*18
$PCDIN,01F11A,00023386,00,FFFFFFFF4003FFFF*5D$PCDIN,00FF1F,00023390,00,3B9FFF4003FFFFFF*25$PCDIN,01F50B,0002339A,73,00E8000000FFFFFF*53$GPDPT,2.3,-0.0*7B
$PCDIN,01F809,000233A4,00,DC4920977F0F7800*5F$PCDIN,01FD02,000233AE,73,008100A72BFAFFFF*5B$GPMWV,64.0,R,1.3,M,A*19
$PCDIN,01F010,000233B9,00,FFFFDC4920977F0F*5E$GPZDA,071322,8,10,2021,02,00*77
$PCDIN,01F503,000233C3,73,000000FFFF00FFFF*57$GPVHW,351.4,T,356.2,M,0.0,N,0.0,K*43
$PCDIN,00FF1A,000233CD,73,3B9F0000FFFFFFFF*2F$PCDIN,01F503,000233D7,73,000000FFFF00FFFF*54$GPVHW,351.4,T,356.2,M,0.0,N,0.0,K*43
$PCDIN,01F112,000233E1,73,00FDEBFF7FFF7FFD*50$GPHDG,346.1,,,4.8,E*39
$PCDIN,01F10D,000233EB,73,FFF8FFFF51FFFFFF*29$PCDIN,00FF08,000233F6,73,3B9F00001400FFFF*25$PCDIN,00FF4F,00023400,73,3B9F00FFFFFDEBFF*28$PCDIN,01EF00,00023428,73,3B9FF0818436A6884000FF02072775303031000064F2*24$PCDIN,01FD07,00023432,73,00C0C76FFF7FFFFF*52$PCDIN,01F90B,0002343D,00,FFFC40030000FFFF*2C$PCDIN,01F513,0002345B,73,FFFFFFFFFFFF5DF22C0400000000*26$GPVLW,37826.4,N,0.0,N*56
$PCDIN,01FF67,0002346F,73,3B9F030004567D10190909*51$PCDIN,01F809,00023479,73,DC4900497F0FFF7F*58$GPRMC,071320.00,A,5422.323,N,1341.288,E,0.0,68.0,081021,4.8,E*51
$PCDIN,01F805,000234C0,73,7FDC4900497F0F000899FBE9AE8B0700D2D8DDD84CE601FFFFFFFFFFFFFF7F23FC086400FF7FFFFFFF7F00*2C$GPGGA,071320.00,5422.323,N,1341.288,E,2,8,1.0,,M,,M,3.1,6800*75
$PCDIN,01FA04,0002358B,73,2CFF0B15102FA7BF3C0FFFFFFF7FF50883253980800CFFFFFF7FF501A51CA7BFC012FFFFFF7FF520F71B4C480000FFFFFF7FF00ADF173E28A00FFFFFFF7FF5168216829B6810FFFFFF7FF51BC713CF6D740EFFFFFF7FF50E530ECCD4740EFFFFFF7FF5038107D39A1C0CFFFFFF7FF51818046A120000FFFFFF7FF0316A129781E40CFFFFFF7FF2*56$GPGSV,3,1,11,21,69,281,39,8,55,188,32,1,42,281,48,32,41,106,0*4D
$PCDIN,01FF67,0002359F,73,3B9F030104567D10190909*5E$PCDIN,01FF67,000235B3,73,3B9F030204567D10190909*53$PCDIN,01FE11,000235D4,00,C01BFFFFFFFFFFFFFFFF40030000*21$PCDIN,01EF00,000235FA,73,3B9FF08190000300CB30303233392D303031000064F2*26$PCDIN,01FD07,00023606,73,00C0C76FFF7FFFFF*57$PCDIN,01F802,00023612,73,00FC612E0000FFFF*58$GPVTG,68.0,T,63.3,M,0.0,N,0.0,K*46
$PCDIN,01F903,0002361B,00,FF306AFBFFFFFFFF*29$GPXTE,A,A,0.0063,R,N,A*18
$PCDIN,01F904,0002364B,00,A2D06B000000FFFFFFFFFFFFC4766778FFFFFFFF02000000402368208AAE28080000*24$GPRMB,A,0.01,R,255,2,5422.174,N,1341.303,E,0.1,176.6,0.0,V*1A
$PCDIN,01F802,000236D9,73,00FC612E0000FFFF*26$GPVTG,68.0,T,63.3,M,0.0,N,0.0,K*46
$PCDIN,01F905,000236E3,00,0100030000000000070701526F757465FF01001001575036326530646533392D303030966368204AA3280802001001575036326530646533392D303031402368208AAE280803001001575036326530646533392D30303298A36720CEF62808*23$PCDIN,01F801,000236ED,73,34846820B5A42808*2B$PCDIN,01F904,00023720,00,A3D06B000000FFFFFFFFFFFFC4766778FFFFFFFF02000000402368208AAE28080000*50$GPRMB,A,0.01,R,255,2,5422.174,N,1341.303,E,0.1,176.6,0.0,V*1A
$PCDIN,01FF20,00023752,00,3B9FAB575036326530646533392D30303100003030303267782775D06B0000FF*28$PCDIN,01FF66,00023799,00,3B9F0200575036326530646533392D30303100000300575036326530646533392D303032000000330200008A723E6E*20$PCDIN,01F903,000237A3,00,FF306AFBFFFFFFFF*29$GPXTE,A,A,0.0063,R,N,A*18
$PCDIN,01F11A,000237AE,00,FFFFFFFF4003FFFF*53$PCDIN,01F011,000237B8,00,60EA26CFFFFFFFFF*58$PCDIN,01F112,000237C2,73,0054ECFF7FFF7FFD*53$GPHDG,346.6,,,4.8,E*3E
$PCDIN,01F10D,000237CC,73,FFF8FFFF51FFFFFF*2A$PCDIN,00FF4F,000237D6,73,3B9F00FFFF54ECFF*5B$PCDIN,01EF00,000237FE,73,3B9FF0819C7126FF36428A00000000D63031000064F2*25$PCDIN,01F50B,00023809,73,00E8000000FFFFFF*29$GPDPT,2.3,-0.0*7B
$PCDIN,01F809,00023813,00,DC4930BE7F0F7800*2B$PCDIN,01F010,0002381D,00,FFFFDC4930BE7F0F*53$GPZDA,071323,8,10,2021,02,00*76
$PCDIN,01FD02,00023827,73,009000E026FAFFFF*26$GPMWV,57.0,R,1.4,M,A*1E
$PCDIN,01F503,00023831,73,000000FFFF00FFFF*2E$GPVHW,351.4,T,356.2,M,0.0,N,0.0,K*43
$PCDIN,00FF1A,0002383B,73,3B9F0000FFFFFFFF*52$PCDIN,01F503,00023845,73,000000FFFF00FFFF*2D$GPVHW,351.4,T,356.2,M,0.0,N,0.0,K*43
$PCDIN,01F90B,00023850,00,FFFC40030000FFFF*52$PCDIN,01F112,00023859,73,00FDEBFF7FFF7FFD*23$GPHDG,346.1,,,4.8,E*39
$PCDIN,01F10D,00023864,73,FFF8FFFF51FFFFFF*27$PCDIN,00FF08,0002386E,73,3B9F00001400FFFF*2D$GPRMC,071323.00,A,5422.323,N,1341.288,E,0.0,68.0,081021,4.8,E*52
$PCDIN,00FF4F,00023879,73,3B9F00FFFFFDEBFF*2A$PCDIN,01EF00,000238A0,73,3B9FF0818436A6884000FF02070000D63031000064F2*25$PCDIN,01F809,000238AA,73,DC4900497F0FFF7F*5A$PCDIN,01F805,000238F1,73,7FDC4900497F0F000899FBE9AE8B0700D2D8DDD84CE601FFFFFFFFFFFFFF7F23FC086400FF7FFFFFFF7F00*24$GPGGA,071320.00,5422.323,N,1341.288,E,2,8,1.0,,M,,M,3.1,1*4A
$PCDIN,01FA04,000239BB,73,2CFF0B15102FA7BF3C0FFFFFFF7FF50883253980800CFFFFFF7FF501A51CA7BFC012FFFFFF7FF520F71B4C480000FFFFFF7FF00ADF173E28A00FFFFFFF7FF5168216829B6810FFFFFF7FF51BC713CF6D740EFFFFFF7FF50E530ECCD4740EFFFFFF7FF5038107D39A1C0CFFFFFF7FF51818046A120000FFFFFF7FF0316A129781480DFFFFFF7FF2*5A$GPGSV,3,1,11,21,69,281,39,8,55,188,32,1,42,281,48,32,41,106,0*4D
$PCDIN,01F513,000239D9,73,FFFFFFFFFFFF5DF22C0400000000*21$GPVLW,37826.4,N,0.0,N*56
$PCDIN,01FF67,000239F2,73,3B9F030004567D10190909*58$PCDIN,01F802,000239FA,73,00FC612E0000FFFF*53$GPVTG,68.0,T,63.3,M,0.0,N,0.0,K*46
$PCDIN,01FF67,00023A15,73,3B9F030104567D10190909*51$PCDIN,01FF67,00023A20,73,3B9F030204567D10190909*54$PCDIN,01FE11,00023A3E,00,C01CFFFFFFFFFFFFFFFF40030000*52$PCDIN,01FD07,00023A48,73,00C0C76FFF7FFFFF*2A$PCDIN,01F802,00023A52,73,00FC612E0000FFFF*2B$GPVTG,68.0,T,63.3,M,0.0,N,0.0,K*46
$PCDIN,01F903,00023A5C,00,FF306AFBFFFFFFFF*5B$GPXTE,A,A,0.0063,R,N,A*18
$PCDIN,01F904,00023A8E,00,A4D06B000000FFFFFFFFFFFFC4766778FFFFFFFF02000000402368208AAE28080000*5E$GPRMB,A,0.01,R,255,2,5422.174,N,1341.303,E,0.1,176.6,0.0,V*1A
$PCDIN,01F905,00023B1C,00,0100030000000000070701526F757465FF01001001575036326530646533392D303030966368204AA3280802001001575036326530646533392D303031402368208AAE280803001001575036326530646533392D30303298A36720CEF62808*53$PCDIN,01F801,00023B27,73,348468200FA42808*5A$PCDIN,01F112,00023B31,73,0054ECFF7FFF7FFD*55$GPHDG,346.6,,,4.8,E*3E
$PCDIN,01F10D,00023B3B,73,FFF8FFFF51FFFFFF*2E$PCDIN,00FF4F,00023B45,73,3B9F00FFFF54ECFF*5D$PCDIN,01EF00,00023B6E,73,3B9FF0819C7126FF330DA14733392D303031000064F2*50$PCDIN,01F904,00023BA0,00,A5D06B000000FFFFFFFFFFFFC4764478FFFFFFFF02000000402368208AAE28080000*51$GPRMB,A,0.01,R,255,2,5422.174,N,1341.303,E,0.1,176.4,0.0,V*18
$PCDIN,01FF20,00023BD3,00,3B9FAC575036326530646533392D30303100003030303244780475D06B0000FF*2C$PCDIN,01FF66,00023C1A,00,3B9F0200575036326530646533392D30303100000300575036326530646533392D3030320000003302000078723E6E*52$PCDIN,01F903,00023C24,00,FF30D5FBFFFFFFFF*2F$GPXTE,A,A,0.0058,R,N,A*10
$PCDIN,01FD07,00023C2E,73,00C0C76FFF7FFFFF*53$PCDIN,01F11A,00023C38,00,FFFFFFFF4003FFFF*28$PCDIN,01F50B,00023C42,73,00E8000000FFFFFF*5D$GPDPT,2.3,-0.0*7B
$PCDIN,01FD02,00023C4C,73,0090009B29FAFFFF*2E$GPMWV,61.0,R,1.4,M,A*1B
$PCDIN,01F809,00023C57,00,DC4940E57F0F7800*20$PCDIN,01F503,00023C61,73,000000FFFF00FFFF*50$GPVHW,351.4,T,356.2,M,0.0,N,0.0,K*43
$PCDIN,01F010,00023C6B,00,FFFFDC4940E57F0F*59$GPZDA,071324,8,10,2021,02,00*71
$PCDIN,00FF1A,00023C75,73,3B9F0000FFFFFFFF*5A$PCDIN,01F503,00023C7F,73,000000FFFF00FFFF*26$GPVHW,351.4,T,356.2,M,0.0,N,0.0,K*43
$PCDIN,01FD07,00023C89,73,00C0C76FFF7FFFFF*25$PCDIN,01FD07,00023C93,73,00C0C76FFF7FFFFF*2E$PCDIN,00FF4F,00023C9E,73,3B9F00FFFFFDEBFF*23$GPRMC,071324.00,A,5422.323,N,1341.287,E,0.0,68.0,081021,4.8,E*5A
$PCDIN,01EF00,00023CC7,73,3B9FF0818436A6884000FF0207392D303031000064F2*56$PCDIN,01F112,00023CD0,73,00FDEBFF7FFF7FFD*20$GPHDG,346.1,,,4.8,E*39
$PCDIN,01F10D,00023CDB,73,FFF8FFFF51FFFFFF*58$PCDIN,00FF08,00023CE5,73,3B9F00001400FFFF*55$PCDIN,01F802,00023CEF,73,00FC612E0000FFFF*2D$GPVTG,68.0,T,63.3,M,0.0,N,0.0,K*46
$PCDIN,01F90B,00023CF9,00,FFFC40030000FFFF*53$PCDIN,01F802,00023D03,73,00FC612E0000FFFF*2A$GPVTG,68.0,T,63.3,M,0.0,N,0.0,K*46
$PCDIN,01F809,00023D0D,73,DC4900497F0FFF7F*52$PCDIN,01F805,00023D54,73,7FDC4900497F0F000899FBE9AE8B0700D67937B24CE601FFFFFFFFFFFFFF7F23FC086400FF7FFFFFFF7F00*50$GPGGA,071320.00,5422.323,N,1341.287,E,2,8,1.0,,M,,M,3.1,1*45
$PCDIN,01FA04,00023E1F,73,2CFF0B15102FA7BF3C0FFFFFFF7FF50883253980800CFFFFFF7FF501A51CA7BFC012FFFFFF7FF520F71B4C480000FFFFFF7FF00ADF173E28A00FFFFFFF7FF5168216829B6810FFFFFF7FF51BC713CF6D740EFFFFFF7FF50E530ECCD4740EFFFFFF7FF5038107D39A1C0CFFFFFF7FF51818046A120000FFFFFF7FF0316A129781480DFFFFFF7FF2*51$GPGSV,3,1,11,21,69,281,39,8,55,188,32,1,42,281,48,32,41,106,0*4D
$PCDIN,01F513,00023E3D,73,FFFFFFFFFFFF5DF22C0400000000*57$GPVLW,37826.4,N,0.0,N*56
$PCDIN,01FF67,00023E51,73,3B9F030004567D10190909*54$PCDIN,01FF67,00023E65,73,3B9F030104567D10190909*52$PCDIN,01FF67,00023E7A,73,3B9F030204567D10190909*24$PCDIN,01FE11,00023E98,00,C01DFFFFFFFFFFFFFFFF40030000*26$PCDIN,01EF00,00023EC0,73,3B9FF081900003FF3030303233392D303031000064F2*20$PCDIN,01F801,00023ECB,73,348468200FA42808*59$PCDIN,01F903,00023ED5,00,FF30D5FBFFFFFFFF*5E$GPXTE,A,A,0.0058,R,N,A*10
$PCDIN,01F904,00023F07,00,A6D06B000000FFFFFFFFFFFFC4764478FFFFFFFF02000000402368208AAE28080000*20$GPRMB,A,0.01,R,255,2,5422.174,N,1341.303,E,0.1,176.4,0.0,V*18
$PCDIN,01F905,00023F95,00,0100030000000000070701526F757465FF01001001575036326530646533392D303030966368204AA3280802001001575036326530646533392D303031402368208AAE280803001001575036326530646533392D30303298A36720CEF62808*29$PCDIN,01F904,00023FC8,00,A7D06B000000FFFFFFFFFFFFC4764478FFFFFFFF02000000402368208AAE28080000*5D$GPRMB,A,0.01,R,255,2,5422.174,N,1341.303,E,0.1,176.4,0.0,V*18
$PCDIN,01FF20,00023FFA,00,3B9FAD575036326530646533392D30303100003030303244780475D06B0000FF*5F$PCDIN,01FF66,00024041,00,3B9F0200575036326530646533392D30303100000300575036326530646533392D3030320000003302000078723E6E*53$PCDIN,01F903,0002404B,00,FF30D5FBFFFFFFFF*2B$GPXTE,A,A,0.0058,R,N,A*10
$PCDIN,01F112,00024055,73,0054ECFF7FFF7FFD*22$GPHDG,346.6,,,4.8,E*3E
$PCDIN,01F10D,0002405F,73,FFF8FFFF51FFFFFF*59$PCDIN,00FF4F,0002406A,73,3B9F00FFFF54ECFF*5E$PCDIN,01EF00,00024092,73,3B9FF0819C7126FF330DA14733392D303031000064F2*5D$PCDIN,01F11A,0002409C,00,FFFFFFFF4003FFFF*2D$PCDIN,01FD02,000240A6,73,008B009C38FAFFFF*28$GPMWV,83.0,R,1.4,M,A*17
$PCDIN,01F809,000240B1,00,DC49500C800F7800*5E$PCDIN,01F50B,000240BB,73,00E8000000FFFFFF*2F$GPDPT,2.3,-0.0*7B
$PCDIN,01F010,000240C5,00,FFFFDC491614800F*20$GPZDA,071325,8,10,2021,02,00*70
$PCDIN,01F503,000240CF,73,000000FFFF00FFFF*26$GPVHW,351.4,T,356.2,M,0.0,N,0.0,K*43
$PCDIN,00FF1A,000240D9,73,3B9F0000FFFFFFFF*51$PCDIN,01F503,000240E3,73,000000FFFF00FFFF*55$GPVHW,351.4,T,356.2,M,0.0,N,0.0,K*43
$PCDIN,01F802,000240EE,73,00FC612E0000FFFF*5A$GPVTG,68.0,T,63.3,M,0.0,N,0.0,K*46
$PCDIN,01F10D,000240F8,73,FFF8FFFF51FFFFFF*54$PCDIN,01F90B,00024102,00,FFFC40030000FFFF*5B$PCDIN,00FF08,0002410C,73,3B9F00001400FFFF*23$GPRMC,071325.20,A,5422.323,N,1341.287,E,0.0,68.0,081021,4.8,E*59
$PCDIN,00FF4F,00024116,73,3B9F00FFFFFDEBFF*2D$PCDIN,01EF00,0002413F,73,3B9FF0818436A6884000FF02070000000000010064F2*5D$PCDIN,01F112,00024149,73,00FDEBFF7FFF7FFD*2C$GPHDG,346.1,,,4.8,E*39
$PCDIN,01F809,00024153,73,DC4900497F0FFF7F*52$PCDIN,01F805,000241A2,73,7FDC4900497F0F000899FBE9AE8B0700D67937B24CE601FFFFFFFFFFFFFF7F23FC086400FF7FFFFFFF7F00*50$GPGGA,071320.00,5422.323,N,1341.287,E,2,8,1.0,,M,,M,3.1,1*45
$PCDIN,01FA04,00024264,73,2CFF0B15102FA7BF3C0FFFFFFF7FF50883253980800CFFFFFF7FF501A51CA7BFC012FFFFFF7FF520F71B4C480000FFFFFF7FF00ADF173E28A00FFFFFFF7FF5168216829B6810FFFFFF7FF51BC713CF6D740EFFFFFF7FF50E530ECCD4740EFFFFFF7FF5038107D39A1C0CFFFFFF7FF51818046A120000FFFFFF7FF0316A129781480DFFFFFF7FF2*54$GPGSV,3,1,11,21,69,281,39,8,55,188,32,1,42,281,48,32,41,106,0*4D
$PCDIN,01F513,00024283,73,FFFFFFFFFFFF5DF22C0400000000*5B$GPVLW,37826.4,N,0.0,N*56
$PCDIN,01FF67,00024297,73,3B9F030004567D10190909*2E$PCDIN,01FF67,000242AB,73,3B9F030104567D10190909*22$PCDIN,01FF67,000242BF,73,3B9F030204567D10190909*26$PCDIN,01FE11,000242DE,00,C01EFFFFFFFFFFFFFFFF40030000*57$PCDIN,01F802,000242E8,73,00FC612E0000FFFF*25$GPVTG,68.0,T,63.3,M,0.0,N,0.0,K*46
$PCDIN,01F903,000242F2,00,FF30D5FBFFFFFFFF*2B$GPXTE,A,A,0.0058,R,N,A*10
$PCDIN,01F801,00024306,73,8D836820B5A42808*52$PCDIN,01F904,0002432F,00,A8D06B000000FFFFFFFFFFFFC4764478FFFFFFFF02000000402368208AAE28080000*2F$GPRMB,A,0.01,R,255,2,5422.174,N,1341.303,E,0.1,176.4,0.0,V*18
$PCDIN,01F905,000243BD,00,0100030000000000070701526F757465FF01001001575036326530646533392D303030966368204AA3280802001001575036326530646533392D303031402368208AAE280803001001575036326530646533392D30303298A36720CEF62808*51$PCDIN,01F904,000243EF,00,A9086B000000FFFFFFFFFFFFC4766778FFFFFFFF02000000402368208AAE28080000*24$GPRMB,A,0.01,R,255,2,5422.174,N,1341.303,E,0.1,176.6,0.0,V*1A
$PCDIN,01FF20,00024422,00,3B9FAE575036326530646533392D30303100003030303267782775086B0000FF*50$PCDIN,01FF66,00024469,00,3B9F0200575036326530646533392D30303100000300575036326530646533392D3030320000003302000078723E6E*5D$PCDIN,01F903,00024473,00,FF307DFBFFFFFFFF*5F$GPXTE,A,A,0.0062,R,N,A*19
$PCDIN,01FD07,0002447D,73,00C0C76FFF7FFFFF*27$PCDIN,01F11A,00024487,00,FFFFFFFF4003FFFF*5C$PCDIN,01FD02,00024491,73,008B00102FFAFFFF*57$GPMWV,69.0,R,1.4,M,A*13
$PCDIN,01FD07,0002449C,73,00C0C76FFF7FFFFF*2E$PCDIN,01F809,000244A6,00,DC496033800F7800*2E$PCDIN,01F50B,000244B0,73,00E8000000FFFFFF*59$GPDPT,2.3,-0.0*7B
$PCDIN,01F010,000244BA,00,FFFFDC49263B800F*26$GPZDA,071326,8,10,2021,02,00*73
$PCDIN,01F112,000244C4,73,0054ECFF7FFF7FFD*51$GPHDG,346.6,,,4.8,E*3E
$PCDIN,01F10D,000244CE,73,FFF8FFFF51FFFFFF*28$PCDIN,00FF4F,000244D8,73,3B9F00FFFF54ECFF*51$PCDIN,01EF00,00024501,73,3B9FF0819C7126FF00000000000000000000000064F2*2B$PCDIN,01F503,0002450B,73,000000FFFF00FFFF*54$GPVHW,351.4,T,356.2,M,0.0,N,0.0,K*43
$PCDIN,01F802,00024515,73,00FC612E0000FFFF*5B$GPVTG,68.0,T,63.3,M,0.0,N,0.0,K*46
$PCDIN,01F802,0002451F,73,00FC612E0000FFFF*28$GPVTG,68.0,T,63.3,M,0.0,N,0.0,K*46
$PCDIN,01F809,0002452A,73,DC4900497F0FFF7F*23$PCDIN,01F90B,00024534,00,FFFC40030000FFFF*5A$PCDIN,01F805,00024584,73,7FDC4900497F0F00429F19C3AE8B0700D2D8DDD84CE601FFFFFFFFFFFFFF7F23FC086400FF7FFFFFFF7F00*24$GPGGA,071320.00,5422.322,N,1341.288,E,2,8,1.0,,M,,M,3.1,1*4B
$PCDIN,01FA04,00024645,73,2CFF0B15102FA7BF3C0FFFFFFF7FF50883253980100EFFFFFF7FF501A51CA7BFC012FFFFFF7FF520F71B4C480000FFFFFF7FF00ADF173E280410FFFFFF7FF5168216829B0410FFFFFF7FF51BC713CF6D100EFFFFFF7FF50E530ECCD4740EFFFFFF7FF5038107D39AE40CFFFFFF7FF51818046A120000FFFFFF7FF0316A129781480DFFFFFF7FF2*55$GPGSV,3,1,11,21,69,281,39,8,55,188,36,1,42,281,48,32,41,106,0*49
$PCDIN,01F513,00024663,73,FFFFFFFFFFFF5DF22C0400000000*51$GPVLW,37826.4,N,0.0,N*56
$PCDIN,01FF67,00024677,73,3B9F030004567D10190909*24$PCDIN,01FF67,0002468C,73,3B9F030104567D10190909*5E$PCDIN,01FF67,000246A0,73,3B9F030204567D10190909*57$PCDIN,01F801,000246AA,73,8D836820B5A42808*51$PCDIN,01F112,000246B4,73,00FDEBFF7FFF7FFD*50$GPHDG,346.1,,,4.8,E*39
$PCDIN,01F10D,000246BF,73,FFF8FFFF51FFFFFF*28$PCDIN,00FF08,000246C9,73,3B9F00001400FFFF*2D$PCDIN,00FF4F,000246D3,73,3B9F00FFFFFDEBFF*5A$PCDIN,01EF00,000246FB,73,3B9FF0818436A6884000FF0207392D303031000064F2*54$PCDIN,01FE11,00024719,00,C01FFFFFFFFFFFFFFFFF40030000*58$PCDIN,01F903,00024724,00,FF307DFBFFFFFFFF*5E$GPXTE,A,A,0.0062,R,N,A*19
$PCDIN,01F904,00024756,00,AA086B000000FFFFFFFFFFFFC4766778FFFFFFFF02000000402368208AAE28080000*58$GPRMB,A,0.01,R,255,2,5422.174,N,1341.303,E,0.1,176.6,0.0,V*1A
$PCDIN,01F905,000247E4,00,0100030000000000070701526F757465FF01001001575036326530646533392D303030966368204AA3280802001001575036326530646533392D303031402368208AAE280803001001575036326530646533392D30303298A36720CEF62808*22$PCDIN,01EF00,0002480D,73,3B9FF081900003000036A9080D2290303030324364F2*2C$PCDIN,01F503,00024817,73,000000FFFF00FFFF*2D$GPVHW,350.9,T,355.7,M,0.0,N,0.0,K*49
$PCDIN,00FF1A,00024821,73,3B9F0000FFFFFFFF*27$PCDIN,01F904,00024853,00,AB086B000000FFFFFFFFFFFFC4766778FFFFFFFF02000000402368208AAE28080000*51$GPRMB,A,0.01,R,255,2,5422.174,N,1341.303,E,0.1,176.6,0.0,V*1A
$PCDIN,01FF20,00024886,00,3B9FAF575036326530646533392D30303100003030303267782775086B0000FF*51$PCDIN,01FF66,000248CC,00,3B9F0200575036326530646533392D30303100000300575036326530646533392D3030320000003302000078723E6E*5E$PCDIN,01F903,000248D7,00,FF307DFBFFFFFFFF*24$GPXTE,A,A,0.0062,R,N,A*19
$PCDIN,01F904,00024909,00,AC086B000000FFFFFFFFFFFFC4766778FFFFFFFF02000000402368208AAE28080000*5E$GPRMB,A,0.01,R,255,2,5422.174,N,1341.303,E,0.1,176.6,0.0,V*1A
$PCDIN,01FF20,0002493B,00,3B9FB0575036326530646533392D30303100003030303267782775086B0000FF*5A$PCDIN,01FD07,0002494F,73,00C0C76FFF7FFFFF*2B$PCDIN,01FF66,0002498D,00,3B9F0200575036326530646533392D30303100000300575036326530646533392D3030320000003302000078723E6E*23$PCDIN,01FD07,00024997,73,00C0C76FFF7FFFFF*57$PCDIN,01F11A,000249A1,00,FFFFFFFF4003FFFF*2E$PCDIN,00FF4F,000249AC,73,3B9F00FFFF54ECFF*22$PCDIN,01EF00,000249D3,73,3B9FF0819C7126FF000009080D2290303030324364F2*28$PCDIN,01F112,000249DD,73,0054ECFF7FFF7FFD*2B$GPHDG,346.6,,,4.8,E*3E
$PCDIN,01F10D,000249E7,73,FFF8FFFF51FFFFFF*51$PCDIN,01FD02,000249F1,73,008600492AFAFFFF*5A$GPMWV,62.0,R,1.3,M,A*1F
$PCDIN,01F50B,000249FB,73,00E8000000FFFFFF*22$GPDPT,2.3,-0.0*7B
$PCDIN,00FFFF,00024A05,00,4F9A00F5FFFFFFFF*5B$GPRMC,071320.00,A,5422.322,N,1341.288,E,0.0,68.0,081021,4.8,E*50
$PCDIN,01F809,00024A10,00,DC49705A800F7800*58$PCDIN,01F503,00024A19,73,000000FFFF00FFFF*5A$GPVHW,351.4,T,356.2,M,0.0,N,0.0,K*43
$PCDIN,00FF1A,00024A24,73,3B9F0000FFFFFFFF*5B$PCDIN,01F503,00024A2E,73,000000FFFF00FFFF*25$GPVHW,351.4,T,356.2,M,0.0,N,0.0,K*43
$PCDIN,01FD07,00024A38,73,00C0C76FFF7FFFFF*2A$PCDIN,01F010,00024A42,00,FFFFDC493662800F*22$GPZDA,071327,8,10,2021,02,00*72
$PCDIN,01FD07,00024A4C,73,00C0C76FFF7FFFFF*56$PCDIN,01F802,00024A56,73,00FC612E0000FFFF*28$GPVTG,68.0,T,63.3,M,0.0,N,0.0,K*46
$PCDIN,01F802,00024A60,73,00FC612E0000FFFF*2D$GPVTG,68.0,T,63.3,M,0.0,N,0.0,K*46
$PCDIN,01F809,00024A6B,73,DC4900497F0FFF7F*50$PCDIN,01F805,00024AB1,73,7FDC4900497F0F00429F19C3AE8B0700D2D8DDD84CE601FFFFFFFFFFFFFF7F23FC086400FF7FFFFFFF7F00*2F$GPGGA,071320.00,5422.322,N,1341.288,E,2,8,1.0,,M,,M,3.1,1*4B
$PCDIN,01F90B,00024B16,00,FFFC40030000FFFF*2D$PCDIN,01FA04,00024B87,73,2CFF0B15102FA7BF3C0FFFFFFF7FF50883253980100EFFFFFF7FF501A51CA7BFC012FFFFFF7FF520F71B4C480000FFFFFF7FF00ADF173E280410FFFFFF7FF5168216829B0410FFFFFF7FF51BC713CF6D100EFFFFFF7FF50E530ECCD4740EFFFFFF7FF5038107D39AE40CFFFFFF7FF51818046A120000FFFFFF7FF0316A129781480DFFFFFF7FF2*2F$GPGSV,3,1,11,21,69,281,39,8,55,188,36,1,42,281,48,32,41,106,0*49
$PCDIN,01F513,00024BA7,73,FFFFFFFFFFFF5DF22C0400000000*56$GPVLW,37826.4,N,0.0,N*56
$PCDIN,01FF67,00024BB8,73,3B9F030004567D10190909*2A$PCDIN,01FF67,00024BCC,73,3B9F030104567D10190909*51$PCDIN,01FF67,00024BE1,73,3B9F030204567D10190909*26$PCDIN,01FE11,00024BFF,00,C020FFFFFFFFFFFFFFFF40030000*50$PCDIN,01F801,00024C09,73,8D836820B5A42808*2D$GPRMC,071320.00,A,5422.322,N,1341.288,E,0.0,68.0,081021,4.8,E*50
$PCDIN,01F903,00024C14,00,FF307DFBFFFFFFFF*29$GPXTE,A,A,0.0062,R,N,A*19
$PCDIN,01F904,00024C46,00,AD086B000000FFFFFFFFFFFFC4766778FFFFFFFF02000000402368208AAE28080000*28$GPRMB,A,0.01,R,255,2,5422.174,N,1341.303,E,0.1,176.6,0.0,V*1A
$PCDIN,01F905,00024CD4,00,0100030000000000070701526F757465FF01001001575036326530646533392D303030966368204AA3280802001001575036326530646533392D303031402368208AAE280803001001575036326530646533392D30303298A36720CEF62808*57$PCDIN,01F112,00024CDE,73,00FDEBFF7FFF7FFD*52$GPHDG,346.1,,,4.8,E*39
$PCDIN,01F10D,00024CE8,73,FFF8FFFF51FFFFFF*24$PCDIN,00FF08,00024CF2,73,3B9F00001400FFFF*56$PCDIN,00FF4F,00024CFD,73,3B9F00FFFFFDEBFF*5A$PCDIN,01EF00,00024D25,73,3B9FF0818436A6884000FF02072775303031000064F2*5E$PCDIN,01F904,00024D58,00,AE086B000000FFFFFFFFFFFFC4766778FFFFFFFF02000000402368208AAE28080000*21$GPRMB,A,0.01,R,255,2,5422.174,N,1341.303,E,0.1,176.6,0.0,V*1A
$PCDIN,01FF20,00024D8A,00,3B9FB1575036326530646533392D30303100003030303267782775086B0000FF*2E$PCDIN,01FF66,00024DD1,00,3B9F0200575036326530646533392D30303100000300575036326530646533392D3030320000003302000078723E6E*57$PCDIN,01F903,00024DDB,00,FF307DFBFFFFFFFF*2D$GPXTE,A,A,0.0062,R,N,A*19
$PCDIN,01F11A,00024DE5,00,FFFFFFFF4003FFFF*53$PCDIN,01FD02,00024DEF,73,008100D524FAFFFF*5D$GPMWV,54.0,R,1.3,M,A*1A
$PCDIN,01F10D,00024DFA,73,FFF8FFFF51FFFFFF*59$PCDIN,00FF4F,00024E04,73,3B9F00FFFF54ECFF*58$PCDIN,01EF00,00024E2C,73,3B9FF0819C7126FF00428900000000D53031000064F2*5C$PCDIN,01F112,00024E36,73,0054ECFF7FFF7FFD*52$GPHDG,346.6,,,4.8,E*3E
$PCDIN,01F50B,00024E40,73,00E8000000FFFFFF*5E$GPDPT,2.3,-0.0*7B
$PCDIN,01F809,00024E4B,00,DC498081800F7800*59$PCDIN,01F503,00024E55,73,000000FFFF00FFFF*56$GPVHW,351.4,T,356.2,M,0.0,N,0.0,K*43
$PCDIN,00FF1A,00024E5F,73,3B9F0000FFFFFFFF*2A$GPRMC,071328.00,A,5422.322,N,1341.288,E,0.0,68.0,081021,4.8,E*58
$PCDIN,01F503,00024E69,73,000000FFFF00FFFF*59$GPVHW,351.4,T,356.2,M,0.0,N,0.0,K*43
$PCDIN,01FD07,00024E73,73,00C0C76FFF7FFFFF*21$PCDIN,01F010,00024E7D,00,FFFFDC494689800F*51$GPZDA,071328,8,10,2021,02,00*7D
$PCDIN,01FD07,00024E88,73,00C0C76FFF7FFFFF*25$PCDIN,01F802,00024E92,73,00FC612E0000FFFF*24$GPVTG,68.0,T,63.3,M,0.0,N,0.0,K*46
$PCDIN,01F802,00024E9C,73,00FC612E0000FFFF*55$GPVTG,68.0,T,63.3,M,0.0,N,0.0,K*46
$PCDIN,01F809,00024EA6,73,DC4900497F0FFF7F*57$PCDIN,01F805,00024EED,73,7FDC4900497F0F00429F19C3AE8B0700D2D8DDD84CE601FFFFFFFFFFFFFF7F23FC086400FF7FFFFFFF7F00*59$GPGGA,071320.00,5422.322,N,1341.288,E,2,8,1.0,,M,,M,0.0,5373*7A
$PCDIN,01F90B,00024F99,00,FFFC40030000FFFF*2E$PCDIN,01FA04,00024FC1,73,2CFF0B15102FA7BF3C0FFFFFFF7FF50883253980100EFFFFFF7FF501A51CA7BFC012FFFFFF7FF520F71B4C480000FFFFFF7FF00ADF173E280410FFFFFF7FF5168216829B0410FFFFFF7FF51BC713CF6D100EFFFFFF7FF50E530ECCD4740EFFFFFF7FF5038107D39AE40CFFFFFF7FF51818046A120000FFFFFF7FF0316A129781E40CFFFFFF7FF2*2C$GPGSV,3,1,11,21,69,281,39,8,55,188,36,1,42,281,48,32,41,106,0*49
$PCDIN,01F513,00024FE0,73,FFFFFFFFFFFF5DF22C0400000000*51$GPVLW,37826.4,N,0.0,N*56
$PCDIN,01FF67,00024FF4,73,3B9F030004567D10190909*26$PCDIN,01FF67,00025008,73,3B9F030104567D10190909*2A$PCDIN,01FF67,0002501C,73,3B9F030204567D10190909*53$PCDIN,01FE11,0002504F,00,C021FFFFFFFFFFFFFFFF40030000*50$PCDIN,01EF00,00025063,73,3B9FF08190000341FA005702A82775303031000064F2*27$PCDIN,01F801,0002506D,73,8D836820B5A42808*24$PCDIN,01F112,00025077,73,00FDEBFF7FFF7FFD*21$GPHDG,346.1,,,4.8,E*39
$PCDIN,01F10D,00025082,73,FFF8FFFF51FFFFFF*21$PCDIN,00FF08,0002508C,73,3B9F00001400FFFF*2B$PCDIN,00FF4F,00025096,73,3B9F00FFFFFDEBFF*25$GPRMC,071320.00,A,5422.322,N,1341.288,E,0.0,68.0,081021,4.8,E*50
$PCDIN,01EF00,000250C0,73,3B9FF0818436A6884000FF02072775303031000064F2*5F$PCDIN,01F903,000250C8,00,FF307DFBFFFFFFFF*25$GPXTE,A,A,0.0062,R,N,A*19
$PCDIN,01F904,000250FB,00,AF086B000000FFFFFFFFFFFFC4766778FFFFFFFF02000000402368208AAE28080000*5E$GPRMB,A,0.01,R,255,2,5422.174,N,1341.303,E,0.1,176.6,0.0,V*1A
$PCDIN,01F905,00025189,00,0100030000000000070701526F757465FF01001001575036326530646533392D303030966368204AA3280802001001575036326530646533392D303031402368208AAE280803001001575036326530646533392D30303298A36720CEF62808*55$PCDIN,01F904,000251BC,00,B0086B000000FFFFFFFFFFFFC4766778FFFFFFFF02000000402368208AAE28080000*2F$GPRMB,A,0.01,R,255,2,5422.174,N,1341.303,E,0.1,176.6,0.0,V*1A
$PCDIN,01FF20,000251EE,00,3B9FB2575036326530646533392D30303100003030303267782775086B0000FF*20$PCDIN,01FF66,00025235,00,3B9F0200575036326530646533392D30303100000300575036326530646533392D3030320000003302000078723E6E*53$PCDIN,01F903,0002523F,00,FF307DFBFFFFFFFF*29$GPXTE,A,A,0.0062,R,N,A*19
$PCDIN,01FD02,00025249,73,007C00E026FAFFFF*5F$GPMWV,57.0,R,1.2,M,A*18
$PCDIN,01F11A,00025254,00,FFFFFFFF4003FFFF*55$PCDIN,01F10D,0002525E,73,FFF8FFFF51FFFFFF*59$PCDIN,00FF4F,00025268,73,3B9F00FFFF54ECFF*24$PCDIN,01EF00,00025290,73,3B9FF0819C7126FF00005702A82775303031000064F2*59$PCDIN,01F112,0002529A,73,0054ECFF7FFF7FFD*59$GPHDG,346.6,,,4.8,E*3E
$PCDIN,01F50B,000252A4,73,00E8000000FFFFFF*59$GPDPT,2.3,-0.0*7B
$PCDIN,01F503,000252AF,73,000000FFFF00FFFF*27$GPVHW,351.4,T,356.2,M,0.0,N,0.0,K*43
$PCDIN,01F809,000252B9,00,DC4990A8800F7800*53$PCDIN,00FF1A,000252C3,73,3B9F0000FFFFFFFF*5F$PCDIN,01F503,000252CD,73,000000FFFF00FFFF*27$GPVHW,351.4,T,356.2,M,0.0,N,0.0,K*43
$PCDIN,01FD07,000252D7,73,00C0C76FFF7FFFFF*20$PCDIN,01FD07,000252E1,73,00C0C76FFF7FFFFF*27$PCDIN,01F010,000252EB,00,FFFFDC4956B0800F*21$GPZDA,071329,8,10,2021,02,00*7C
$PCDIN,01F802,000252F6,73,00FC612E0000FFFF*29$GPVTG,68.0,T,63.3,M,0.0,N,0.0,K*46
$PCDIN,01F802,00025300,73,00FC612E0000FFFF*58$GPVTG,68.0,T,63.3,M,0.0,N,0.0,K*46
$PCDIN,01F809,0002530A,73,DC4900497F0FFF7F*26$PCDIN,01F805,00025351,73,7FDC4900497F0F00429F19C3AE8B0700D2D8DDD84CE601FFFFFFFFFFFFFF7F23FC086400FF7FFFFFFF7F00*2B$GPGGA,071320.00,5422.322,N,1341.288,E,2,8,1.0,,M,,M,0.0,1*49
$PCDIN,01FA04,0002541B,73,2CFF0B15102FA7BF3C0FFFFFFF7FF50883253980100EFFFFFF7FF501A51CA7BFC012FFFFFF7FF520F71B4C480000FFFFFF7FF00ADF173E280410FFFFFF7FF5168216829B0410FFFFFF7FF51BC713CF6D100EFFFFFF7FF50E530ECCD4740EFFFFFF7FF5038107D39AE40CFFFFFF7FF51818046A120000FFFFFF7FF0316A129781E40CFFFFFF7FF2*5E$GPGSV,3,1,11,21,69,281,39,8,55,188,36,1,42,281,48,32,41,106,0*49
$PCDIN,01F513,0002543A,73,FFFFFFFFFFFF5DF22C0400000000*25$GPVLW,37826.4,N,0.0,N*56
$PCDIN,01FF67,0002544E,73,3B9F030004567D10190909*56$PCDIN,01FF67,00025462,73,3B9F030104567D10190909*22$PCDIN,01F90B,0002546C,00,FFFC40030000FFFF*28$PCDIN,01FF67,00025481,73,3B9F030204567D10190909*2C$PCDIN,01F801,0002548B,73,8D836820B5A42808*28$PCDIN,01FE11,000254A9,00,C022FFFFFFFFFFFFFFFF40030000*5D$PCDIN,01F112,000254B3,73,00FDEBFF7FFF7FFD*54$GPHDG,346.1,,,4.8,E*39
$PCDIN,01F10D,000254BD,73,FFF8FFFF51FFFFFF*29$PCDIN,00FF08,000254C8,73,3B9F00001400FFFF*2F$PCDIN,00FF4F,000254D2,73,3B9F00FFFFFDEBFF*58$PCDIN,01EF00,000254FA,73,3B9FF0818436A6884000FF0207392D303031000064F2*54$PCDIN,01F903,00025505,00,FF307DFBFFFFFFFF*5E$GPXTE,A,A,0.0062,R,N,A*19
$PCDIN,01F904,00025537,00,B1086B000000FFFFFFFFFFFFC4766778FFFFFFFF02000000402368208AAE28080000*2F$GPRMB,A,0.01,R,255,2,5422.174,N,1341.303,E,0.1,176.6,0.0,V*1A
$PCDIN,01F905,000255C4,00,0100030000000000070701526F757465FF01001001575036326530646533392D303030966368204AA3280802001001575036326530646533392D303031402368208AAE280803001001575036326530646533392D30303298A36720CEF62808*27$PCDIN,01F904,000255F7,00,B2086B000000FFFFFFFFFFFFC4766778FFFFFFFF02000000402368208AAE28080000*59$GPRMB,A,0.01,R,255,2,5422.174,N,1341.303,E,0.1,176.6,0.0,V*1A
$PCDIN,01FF20,0002562A,00,3B9FB3575036326530646533392D30303100003030303267782775086B0000FF*55$PCDIN,01FF66,00025671,00,3B9F0200575036326530646533392D30303100000300575036326530646533392D3030320000003302000078723E6E*57$PCDIN,01F903,0002567B,00,FF307DFBFFFFFFFF*2D$GPXTE,A,A,0.0062,R,N,A*19
$PCDIN,01FD02,00025685,73,0081008F27FAFFFF*2C$GPMWV,58.0,R,1.3,M,A*16
$PCDIN,01EF00,000256AD,73,3B9FF081900005004000FF0207B009303031000064F2*21$PCDIN,01F11A,000256B8,00,FFFFFFFF4003FFFF*2A$PCDIN,01F112,000256C2,73,0054ECFF7FFF7FFD*54$GPHDG,346.6,,,4.8,E*3E
$PCDIN,01F10D,000256CC,73,FFF8FFFF51FFFFFF*2D$PCDIN,00FF4F,000256D6,73,3B9F00FFFF54ECFF*5C$PCDIN,01EF00,000256FE,73,3B9FF0819C7126FF0000FF0207B009303031000064F2*57$PCDIN,01F50B,00025709,73,00E8000000FFFFFF*20$GPDPT,2.3,-0.0*7B
$PCDIN,01F809,00025713,00,DC49A0CF800F7800*2B$PCDIN,01F503,0002571D,73,000000FFFF00FFFF*50$GPVHW,351.4,T,356.2,M,0.0,N,0.0,K*43
$PCDIN,00FF1A,00025727,73,3B9F0000FFFFFFFF*2F$PCDIN,01F503,00025731,73,000000FFFF00FFFF*27$GPVHW,351.4,T,356.2,M,0.0,N,0.0,K*43
$PCDIN,01F010,0002573C,00,FFFFDC4966D7800F*51$GPZDA,071330,8,10,2021,02,00*74
$PCDIN,01FD07,00025745,73,00C0C76FFF7FFFFF*57$PCDIN,01F802,00025750,73,00FC612E0000FFFF*59$GPVTG,68.0,T,63.3,M,0.0,N,0.0,K*46
